[
    {
    "name": "other",
    "street_address": "1234 Test Lane",
    "state": "VA",
    "city": "Fredericksburg",
    "zipcode": "56789",
    "devices": [
            {
                "class": "NestThermostat",
                "device_type": "Thermostat",
                "hvac_mode": "heat",
                "previous_hvac_mode": "off",
                "target_temperature_high": 75,
                "target_temperature_low": 70,
                "locked_temp_max": 72,
                "locked_temp_min": 71,
                "eco_temperature_high": 76,
                "eco_temperature_low": 74,
                "temperature_scale": "F",
                "has_fan": true,
                "is_locked": false,
                "fan_timer_duration": 5,
                "name": "Nest",
                "location": "Upstairs",
                "device_id": "1234",
                "sunlight_correction_enabled": false,
                "sunlight_correction_active": false
            },
            {
                "class": "PhilipsHueLamp",
                "device_type": "Light",
                "device_id": "2345",
                "location": "Desk",
                "name": "Philips Hue Lamp",
                "brightness": 1.0
            },
            {
                "class": "SmartPlug",
                "device_type": "Plug",
                "device_id": "4567",
                "location": "Desk",
                "name": "Lamp"
            },
            {
                "class": "Refrigerator",
                "device_type": "Refrigerator",
                "device_id": "5678",
                "location": "Kitchen",
                "name": "Samsung"
            }
        ]
},
{
    "name": "other",
    "street_address": "4321 Somewhere Else Lane",
    "state": "VA",
    "city": "Fredericksburg",
    "zipcode": "12345",
    "devices": [
        {
            "class": "PhilipsHueLamp"
        }
    ]
}
]